objectID,type,ParkName,GoogleID,Lat,Long,NumberRatings,inPhilly,Notes,,,,,,,,,,,,,,,,,,,,,,,,,,,,,,,,,
113,Point,John F Kennedy Plaza (LOVE Park),ChIJkydYBi7GxokRB1nllBaz4zk,39.954132,-75.16564,14634,1,,,,,,,,,,,,,,,,,,,,,,,,,,,,,,,,,,
107,Point,Rittenhouse Square,ChIJIQGrHTrGxokRofc6nBBJrRU,39.949462,-75.171892,6465,1,no google ID here,,,,,,,,,,,,,,,,,,,,,,,,,,,,,,,,,
204,Point,Wissahickon Valley Park,ChIJIcPcqf64xokRSPxypSWNWic,40.056211,-75.217331,6252,1,,,,,,,,,,,,,,,,,,,,,,,,,,,,,,,,,,
146,Point,East Fairmount Park,ChIJ9yn9mbzHxokR1TbHNCkX9E4,39.984455,-75.197028,5222,1,,,,,,,,,,,,,,,,,,,,,,,,,,,,,,,,,,
23,Point,Franklin Delano Roosevelt Park,ChIJie9v2DbBxokRHylCIW7ceSA,39.90214,-75.18381,4338,1,"should also consider
	
ChIJjQO6UDTFxokRKwipjcz5Q5o	Anna C. Verna Playground
ChIJB37Luk_FxokRSxEC_QgGmAU	Boathouse at FDR Park
ChIJm1IODzjFxokREo4XLuKy_WQ	Children???s Playground at FDR Park
ChIJa8NFISXFxokRyfcKW9fOUTU	FDR Community Clubhouse
ChIJQ0ZFt63FxokRqkfAi0r4wPQ	Gazebo at FDR Park
ChIJYdE2rAjFxokRV2viGHW2ois	Picnic Area #18 at FDR Park
ChIJZTP18zXFxokRZSENwg8ci8o	Picnic Area A",,,,,,,,,,,,,,,,,,,,,,,,,,,,,,,,,
130,Point,Penn Treaty Park,ChIJRycq6ELIxokRqyoKN58WSZk,39.966274,-75.128479,2733,1,,,,,,,,,,,,,,,,,,,,,,,,,,,,,,,,,,
106,Point,Clarence H Clark Park,ChIJbyyRSfLGxokRDJARJE7eV9o,39.948897,-75.210414,2707,1,,,,,,,,,,,,,,,,,,,,,,,,,,,,,,,,,,
151,Point,Belmont Plateau,ChIJ9b9I7G3HxokRlP4EMxkOeYE,39.990324,-75.212664,2055,1,,,,,,,,,,,,,,,,,,,,,,,,,,,,,,,,,,
236,Point,Logan Square,ChIJayuuCzTGxokRak65s-xv_Oo,39.95803,-75.17096,1898,1,,,,,,,,,,,,,,,,,,,,,,,,,,,,,,,,,,
175,Point,Hunting Park,ChIJ3bXlTY23xokRYf865UX0Dpw,40.01667,-75.14382,1782,1,merge with 999,,,,,,,,,,,,,,,,,,,,,,,,,,,,,,,,,
191,Point,Tacony Creek Park,ChIJ91aSfKq3xokRGK8HYl58E_g,40.0336,-75.112982,1759,1,,,,,,,,,,,,,,,,,,,,,,,,,,,,,,,,,,
104,Point,Schuylkill River Park,ChIJ487CtO3HxokRpQTcjx2xLNM,39.948818,-75.181766,1676,1,,,,,,,,,,,,,,,,,,,,,,,,,,,,,,,,,,
197,Point,Fish Hatchery at Pleasant Hill Park,ChIJ1wCpc5a0xokRSNN2kgHmBC8,40.042569,-74.992837,1577,1,,,,,,,,,,,,,,,,,,,,,,,,,,,,,,,,,,
55,Point,Pleasant Hill Park,ChIJ1wCpc5a0xokRSNN2kgHmBC8,40.04257,-74.99284,1577,1, ,,,,,,,,,,,,,,,,,,,,,,,,,,,,,,,,,
110,Point,Malcolm X Memorial Park,ChIJxyUiG8LGxokR-B64pUFtwuE,39.952663,-75.225427,1493,1,,,,,,,,,,,,,,,,,,,,,,,,,,,,,,,,,,
108,Point,Schuylkill Banks,ChIJ1QhLoknGxokRY1BxIaMBmEY,39.952195,-75.180653,1420,1,,,,,,,,,,,,,,,,,,,,,,,,,,,,,,,,,,
207,Point,Burholme Park,ChIJa8W67cy2xokROgXq8Zpx3cM,40.067148,-75.089962,1001,1,,,,,,,,,,,,,,,,,,,,,,,,,,,,,,,,,,
69,Point,Marconi Plaza,ChIJx3Iz7uPFxokRZC8frTdovRI,39.915667,-75.171128,931,1,,,,,,,,,,,,,,,,,,,,,,,,,,,,,,,,,,
35,Point,Sister Cities Park,ChIJK6SVAzPGxokRaNqldb6kA9I,39.95791,-75.16934,838,1,,,,,,,,,,,,,,,,,,,,,,,,,,,,,,,,,,
117,Point,Sister Clara Muhammad Square,ChIJK6SVAzPGxokRaNqldb6kA9I,39.957906,-75.169339,837,1,same as Clarkson Park,,,,,,,,,,,,,,,,,,,,,,,,,,,,,,,,,
89,Point,Cobbs Creek Park,ChIJrUwqs7HGxokRG3GEi-C6Jms,39.940632,-75.239171,819,1,,,,,,,,,,,,,,,,,,,,,,,,,,,,,,,,,,
194,Point,Susan Gorgas Park,ChIJyalRj-i4xokR232ASX8TyDs,40.037306,-75.22122,772,1,,,,,,,,,,,,,,,,,,,,,,,,,,,,,,,,,,
252,Point,Fernhill Park,ChIJgeJFuRe4xokR4PiPoMBuR0Q,40.01951,-75.1684,583,1,,,,,,,,,,,,,,,,,,,,,,,,,,,,,,,,,,
210,Point,Verree and Susquehanna Playground,ChIJfbV91luxxokR251x55kfghc,40.080582,-75.067347,574,1,,,,,,,,,,,,,,,,,,,,,,,,,,,,,,,,,,
256,Point,John Dickinson Square,ChIJNx3fKqbIxokRs3IRzO4WjN4,39.92789,-75.15086,571,1,there is also a playground there / ChIJa8Syz6fIxokRzWRaonh7q8k/ - not taking that into account (n=7),,,,,,,,,,,,,,,,,,,,,,,,,,,,,,,,,
28,Point,Rail Park,ChIJE1_qJdzHxokROefoBvxBYEU,39.96016,-75.15963,533,1,,,,,,,,,,,,,,,,,,,,,,,,,,,,,,,,,,
103,Point,I-95 Park,ChIJZ0C1ko_IxokRJtXA991dslk,39.947778,-75.142009,495,1,,,,,,,,,,,,,,,,,,,,,,,,,,,,,,,,,,
187,Point,Pretzel Park,ChIJAQ8b55S4xokR3J_nxeHg9fE,40.025584,-75.221105,482,1,,,,,,,,,,,,,,,,,,,,,,,,,,,,,,,,,,
195,Point,Manayunk Canal,ChIJ9ySqH8-4xokR8Fzn3yeScyo,40.037381,-75.24189,478,1,,,,,,,,,,,,,,,,,,,,,,,,,,,,,,,,,,
226,Point,Campbell Square,ChIJH6So9NPJxokReIgxzWN0z2Y,39.98636,-75.10327,460,1,,,,,,,,,,,,,,,,,,,,,,,,,,,,,,,,,,
249,Point,Norris Square,ChIJaYQO-xbIxokRLtTpn5gZPj8,39.98268,-75.13469,434,1,,,,,,,,,,,,,,,,,,,,,,,,,,,,,,,,,,
178,Point,McMichael Park,ChIJAf0WTG-4xokR3augPONwaTk,40.018481,-75.187004,420,1,,,,,,,,,,,,,,,,,,,,,,,,,,,,,,,,,,
125,Point,Eakins Oval,ChIJrwDdgrXHxokRZ8Q-XV4tloc,39.963627,-75.178359,408,1,,,,,,,,,,,,,,,,,,,,,,,,,,,,,,,,,,
71,Point,Mifflin Square,ChIJ-btRQgDGxokRavFwlFZPh4A,39.919477,-75.156519,394,1,,,,,,,,,,,,,,,,,,,,,,,,,,,,,,,,,,
174,Point,Lardners Point Park,ChIJDyDcf8W1xokRUyJy2qpDOiA,40.014748,-75.045998,373,1,,,,,,,,,,,,,,,,,,,,,,,,,,,,,,,,,,
45,Point,Carroll Park,ChIJ4TC1c0LHxokR4NPknod6Qz4,39.97104,-75.23669,369,1,,,,,,,,,,,,,,,,,,,,,,,,,,,,,,,,,,
142,Point,Sedgley Woods Disc Golf Course,ChIJ1bQ796LHxokRDRS-nRclQAU,39.981548,-75.191342,364,1,,,,,,,,,,,,,,,,,,,,,,,,,,,,,,,,,,
190,Point,Blue Bell Park,ChIJG9t401u4xokRehGvJXGxHpY,40.031301,-75.194634,347,1,,,,,,,,,,,,,,,,,,,,,,,,,,,,,,,,,,
160,Point,Harrowgate Park,ChIJMcEn3iy2xokR3NFfUm_kKus,39.999218,-75.106369,339,1,,,,,,,,,,,,,,,,,,,,,,,,,,,,,,,,,,
,,Juniata Park,ChIJcf8po0u2xokRjKskdO6gjg4,40.01488,-75.10418,331,1,merge with Tacony Creek ,,,,,,,,,,,,,,,,,,,,,,,,,,,,,,,,,
233,Point,Vernon Park,ChIJ8Q4wDDa4xokRUDXjlmumT5s,40.03561,-75.17672,324,1,,,,,,,,,,,,,,,,,,,,,,,,,,,,,,,,,,
223,Point,Thomas P Stokley Recreation Center,ChIJq3lfInfGxokR6xTloExtwhs,39.92596,-75.18719,313,1,,,,,,,,,,,,,,,,,,,,,,,,,,,,,,,,,,
62,Point,Jefferson Square,ChIJk32taqHIxokRPcfpieYftSU,39.93357,-75.15013,301,1,,,,,,,,,,,,,,,,,,,,,,,,,,,,,,,,,,
163,Point,29th and Chalmers Playground,ChIJKcxkF4vHxokRj4nO1X3MuKw,40.000265,-75.178342,290,1,,,,,,,,,,,,,,,,,,,,,,,,,,,,,,,,,,
72,Point,Stephen Girard Park,ChIJV-otSN_FxokRwh89UCkQ48s,39.920322,-75.183447,289,1,,,,,,,,,,,,,,,,,,,,,,,,,,,,,,,,,,
76,Point,Russell DeRitis Playground,ChIJEwQxPQ7GxokRm8LBicqCFE0,39.929141,-75.170042,272,1,no google ID here (it is in Fairmount Park),,,,,,,,,,,,,,,,,,,,,,,,,,,,,,,,,
234,Point,General Casimir Pulaski Park,ChIJkbjKmM_JxokRexQUX0bybbo,39.97857,-75.09752,254,1,,,,,,,,,,,,,,,,,,,,,,,,,,,,,,,,,,
95,Point,Grays Ferry Crescent,ChIJeS9q1GHGxokR9TzxYDFxWzA,39.942573,-75.203235,253,1,,,,,,,,,,,,,,,,,,,,,,,,,,,,,,,,,,
188,Point,Pennypack on the Delaware,ChIJGdGpnFC0xokRXjNzygI9O2s,40.027687,-75.019521,247,1,,,,,,,,,,,,,,,,,,,,,,,,,,,,,,,,,,
58,Point,Korean War Veterans Memorial,ChIJfSYCnZrIxokRyvvUVyTC4KQ,39.94499,-75.14344,215,1,,,,,,,,,,,,,,,,,,,,,,,,,,,,,,,,,,
1,Point,Delancey Park,ChIJ-5kFm5vIxokR8VHXewCN8eY,39.94408,-75.1479,214,1,,,,,,,,,,,,,,,,,,,,,,,,,,,,,,,,,,
124,Point,Paines Park,ChIJr5KSHrXHxokR5PpF0k6SfFI,39.962874,-75.180621,203,1,,,,,,,,,,,,,,,,,,,,,,,,,,,,,,,,,,
122,Point,Matthias Baldwin Park,ChIJbYrHHc3HxokR1Iw0demCXNQ,39.961667,-75.168948,199,1,,,,,,,,,,,,,,,,,,,,,,,,,,,,,,,,,,
40,Point,Palmer Park,ChIJ0cFmtmrIxokRPX_t7cF9wWM,39.97489,-75.13254,195,1,,,,,,,,,,,,,,,,,,,,,,,,,,,,,,,,,,
176,Point,Overington Park,ChIJR9xQpkO2xokRiROV3yO2Vro,40.016999,-75.08828,189,1,,,,,,,,,,,,,,,,,,,,,,,,,,,,,,,,,,
203,Point,Cliveden Park,ChIJC0gI_re5xokR8fAPdCoKEGI,40.051182,-75.177939,187,1,,,,,,,,,,,,,,,,,,,,,,,,,,,,,,,,,,
999,Point,Hunting Park Recreation Center,ChIJr9-gOe23xokRbPM2mBanERo,40.01744,-75.14382,185,1,merge with 175,,,,,,,,,,,,,,,,,,,,,,,,,,,,,,,,,
20,Point,Fanny Kemble Abolitionist Memorial Park,ChIJMQXpJn-3xokRS76DEQdgcs8,40.03998,-75.1498,185,1,,,,,,,,,,,,,,,,,,,,,,,,,,,,,,,,,,
137,Point,Glendinning Rock Garden,ChIJgeby66THxokRPBoXqjkafUM,39.97645,-75.1912,184,1,,,,,,,,,,,,,,,,,,,,,,,,,,,,,,,,,,
185,Point,Frankford and Solly Playground,ChIJfxdMR2G2xokR_QGL8n8p9wU,40.024715,-75.079913,164,1,,,,,,,,,,,,,,,,,,,,,,,,,,,,,,,,,,
18,Point,Gold Star Park,ChIJ_bcj_R3GxokRsALBnpQ1a4k,39.93294,-75.15518,161,1,,,,,,,,,,,,,,,,,,,,,,,,,,,,,,,,,,
114,Point,Cret Park,ChIJm41VCTLGxokRVhr84onHXyA,39.955543,-75.166561,158,1,,,,,,,,,,,,,,,,,,,,,,,,,,,,,,,,,,
258,Point,Sherwood Park,ChIJ2wNhhbfGxokR5W_6G4jGZEI,39.94671,-75.23751,145,1,,,,,,,,,,,,,,,,,,,,,,,,,,,,,,,,,,
140,Point,Konrad Square,ChIJa16mhj7IxokRdmZom7ZFDdM,39.979319,-75.127995,144,1,,,,,,,,,,,,,,,,,,,,,,,,,,,,,,,,,,
12,Point,William Lanier Park,ChIJ05Xl3cHHxokR2mS1XFivxWU,39.93362,-75.19388,144,1,dog park,,,,,,,,,,,,,,,,,,,,,,,,,,,,,,,,,
102,Point,Fitler Square,ChIJMd0WFkfGxokRCUOh17k4YVo,39.9476,-75.17976,142,1,,,,,,,,,,,,,,,,,,,,,,,,,,,,,,,,,,
112,Point,Ben Barkan Park,ChIJtyawBunGxokRobOljf-1qGg,39.953829,-75.221561,134,1,,,,,,,,,,,,,,,,,,,,,,,,,,,,,,,,,,
136,Point,Marian Winfield Hissey Recreation Center,ChIJ0bDrndi3xokRr3a0KmyzM4M,39.99433,-75.12334,134,1,,,,,,,,,,,,,,,,,,,,,,,,,,,,,,,,,,
143,Point,Colonel Thomas J Powers Park,ChIJwyezXi3IxokRGF4WpwWVGNw,39.982504,-75.108931,132,1,,,,,,,,,,,,,,,,,,,,,,,,,,,,,,,,,,
202,Point,Frankford and Pennypack Park,ChIJzeuMQQK1xokRL4mQfZxyBY8,40.049551,-75.035803,128,1,,,,,,,,,,,,,,,,,,,,,,,,,,,,,,,,,,
201,Point,Pennypack Park,ChIJzeuMQQK1xokRL4mQfZxyBY8,40.049551,-75.035803,128,1,,,,,,,,,,,,,,,,,,,,,,,,,,,,,,,,,,
29,Point,Hope Park,ChIJ6TFIKYC3xokRmfC2e01b-Ik,39.99549,-75.12761,122,1,,,,,,,,,,,,,,,,,,,,,,,,,,,,,,,,,,
209,Point,Pastorius Park,ChIJQxf7F6K5xokRdOcuY4_fkbs,40.070752,-75.205123,118,1,,,,,,,,,,,,,,,,,,,,,,,,,,,,,,,,,,
78,Point,Ralph Brooks Park,ChIJj3anrRLGxokR9UvuVqpf4jk,39.931445,-75.177697,113,1,,,,,,,,,,,,,,,,,,,,,,,,,,,,,,,,,,
158,Point,Belmont and Edgley Fields,ChIJh2zauHrHxokRC23AG2C8fEo,39.995501,-75.213776,106,1,,,,,,,,,,,,,,,,,,,,,,,,,,,,,,,,,,
93,Point,Julian Abele Park,ChIJHShWn2rGxokRKdH8EZ4e3To,39.940884,-75.179268,104,1,,,,,,,,,,,,,,,,,,,,,,,,,,,,,,,,,,
63,Point,Cloverly Park,ChIJhTJ5IEG4xokRRgOs2ZcPoqA,40.0257,-75.18099,97,1,,,,,,,,,,,,,,,,,,,,,,,,,,,,,,,,,,
184,Point,Disston Park,ChIJ1-dgbMu1xokRCmIU8JS1adE,40.022058,-75.04233,95,1,,,,,,,,,,,,,,,,,,,,,,,,,,,,,,,,,,
198,Point,Salvatore Pachella Memorial Field,ChIJi727LjG5xokRjf4fTUDb7Zk,40.045791,-75.215937,90,1,,,,,,,,,,,,,,,,,,,,,,,,,,,,,,,,,,
85,Point,Giuseppe Bardascino Park,ChIJ_Rn1Th_GxokRoNWBBwLUtx8,39.937796,-75.159919,89,1,,,,,,,,,,,,,,,,,,,,,,,,,,,,,,,,,,
86,Point,Weccacoe Square,ChIJPaA4Qp_IxokRKzyK5pk8_2Y,39.938151,-75.150634,88,1,,,,,,,,,,,,,,,,,,,,,,,,,,,,,,,,,,
154,Point,Belmont Grove,ChIJVc_qbm7HxokRWwpjnmvIl4A,39.992323,-75.215304,77,1,,,,,,,,,,,,,,,,,,,,,,,,,,,,,,,,,,
96,Point,Philadelphia Vietnam Veterans Memorial,ChIJtfQZgJDIxokRk-G7_aKcm4c,39.943987,-75.142773,75,1,,,,,,,,,,,,,,,,,,,,,,,,,,,,,,,,,,
9,Point,Joseph C Fluehr Memorial Park,ChIJ9Q4LTae0xokR-0IfB8t9Cd4,40.05465,-74.98724,72,1,called 'friend of Fluehr Park',,,,,,,,,,,,,,,,,,,,,,,,,,,,,,,,,
,,William Lanier Playground,ChIJbfeERKXIxokRwfCFeGe7TuA,39.93341,-75.19376,72,1,playground,,,,,,,,,,,,,,,,,,,,,,,,,,,,,,,,,
128,Point,Norman (Butch) Ellis Playground,ChIJ61fPdwDHxokRNT38vi70dUs,39.965954,-75.200936,71,1,,,,,,,,,,,,,,,,,,,,,,,,,,,,,,,,,,
162,Point,Jose Manuel Collazo Park,ChIJ5_ECBd63xokRpEo1lYE45x8,39.999641,-75.130633,68,1,,,,,,,,,,,,,,,,,,,,,,,,,,,,,,,,,,
82,Point,Bartrams Mile Trail Greenway (56th),ChIJu-aOGoXGxokRsFN8rhDHQWE,39.935125,-75.206924,63,1,,,,,,,,,,,,,,,,,,,,,,,,,,,,,,,,,,
81,Point,Devereaux Ave Trailhead at K and T Trail,ChIJu-aOGoXGxokRsFN8rhDHQWE,39.935125,-75.206924,63,1,,,,,,,,,,,,,,,,,,,,,,,,,,,,,,,,,,
157,Point,Reyburn Park,ChIJLVkfG_rHxokRWMIwhsFWSds,39.994917,-75.165118,59,1,,,,,,,,,,,,,,,,,,,,,,,,,,,,,,,,,,
171,Point,Inn Yard Park,ChIJkTEFDHy4xokR3y81rj83fmI,40.009098,-75.195332,54,1,,,,,,,,,,,,,,,,,,,,,,,,,,,,,,,,,,
73,Point,Emanuel Weinberg Park,ChIJGZS7rwHGxokRVEHTa_Ql-VA,39.921253,-75.156526,53,1,,,,,,,,,,,,,,,,,,,,,,,,,,,,,,,,,,
87,Point,Frank Palumbo Sr Park,ChIJ_dp7EyDGxokREDLpVfcF0SM,39.93926,-75.155587,53,1,,,,,,,,,,,,,,,,,,,,,,,,,,,,,,,,,,
200,Point,Ned Wolf Park,ChIJV7DVXqm5xokRRR7AJ717Tnw,40.049056,-75.196502,53,1,,,,,,,,,,,,,,,,,,,,,,,,,,,,,,,,,,
31,Point,Spring Gardens,ChIJt5tHQc7HxokR96tT3I8zqVc,39.96655,-75.16825,52,1,,,,,,,,,,,,,,,,,,,,,,,,,,,,,,,,,,
161,Point,Chamounix Tennis Courts,ChIJ93-1tG_HxokRX-8IIhEc3js,39.999379,-75.201844,51,1,,,,,,,,,,,,,,,,,,,,,,,,,,,,,,,,,,
,,"Tacony Creek Park, I St and Ramona Ave Gateway",ChIJ26qgUku2xokRWu2KHZAoxso,40.0166,-75.10776,51,1,merge with Tacony Creek ,,,,,,,,,,,,,,,,,,,,,,,,,,,,,,,,,
61,Point,Woodside Park,ChIJJ0HmN3zHxokRODaTOAFHUnE,40.00239,-75.20872,51,1,,,,,,,,,,,,,,,,,,,,,,,,,,,,,,,,,,
,,"Tacony Creek Park, Whitaker Gateway",ChIJd_QXFbK3xokR6p-tgQG1jsA,40.02171,-75.11231,50,1,merge with Tacony Creek ,,,,,,,,,,,,,,,,,,,,,,,,,,,,,,,,,
205,Point,Holme Crispin Park,ChIJI1unNXm0xokRyHQk3_zCgg8,40.057278,-75.02041,47,1,,,,,,,,,,,,,,,,,,,,,,,,,,,,,,,,,,
49,Point,Triangle Park,ChIJCYYUXjnHxokRTLLmUD-9NhI,39.9834,-75.23189,45,1,,,,,,,,,,,,,,,,,,,,,,,,,,,,,,,,,,
91,Point,Cianfrani Park,ChIJBRICDBnHxokR-feNuM38ZhU,39.940681,-75.155379,44,1,,,,,,,,,,,,,,,,,,,,,,,,,,,,,,,,,,
120,Point,Benjamin Franklin Parkway,ChIJlzNI2TTGxokRvU4kLhhhV6A,39.959819,-75.173259,40,1,,,,,,,,,,,,,,,,,,,,,,,,,,,,,,,,,,
65,Point,Vine Street Park (676 East),ChIJG3sxvirGxokR2j2NasmhukU,39.95702,-75.15579,39,1,,,,,,,,,,,,,,,,,,,,,,,,,,,,,,,,,,
179,Point,Nicetown Park,ChIJe4gYV3W5xokR5Y6dLKa-dWY,40.019618,-75.155727,37,1,,,,,,,,,,,,,,,,,,,,,,,,,,,,,,,,,,
,,"Tacony Creek Park, Bingham St. Gateway",ChIJp-fcuq63xokReHv464Y-4jw,40.02736,-75.1144,34,1,merge with Tacony Creek ,,,,,,,,,,,,,,,,,,,,,,,,,,,,,,,,,
182,Point,Wissahickon Neighbors Playground,ChIJN5z-ZbO5xokRf-CFUMfsQsQ,40.021446,-75.213202,34,1,,,,,,,,,,,,,,,,,,,,,,,,,,,,,,,,,,
21,Point,Bradford Park,ChIJkUcIDRm0xokRQ-fOeHeIelw,40.04888,-75.05308,33,1,,,,,,,,,,,,,,,,,,,,,,,,,,,,,,,,,,
150,Point,Edgley Fields,ChIJkx69eJzHxokRM-fqZI1OnGk,39.990263,-75.192361,33,1,,,,,,,,,,,,,,,,,,,,,,,,,,,,,,,,,,
19,Point,Trenton and Auburn Playground,ChIJh5qgAi_IxokRQBeF-GVVB8g,39.98645,-75.11635,33,1,,,,,,,,,,,,,,,,,,,,,,,,,,,,,,,,,,
152,Point,West Fairmount Park,ChIJx5yI0RzHxokRH-6ferXgYLs,39.990389,-75.20272,33,1,,,,,,,,,,,,,,,,,,,,,,,,,,,,,,,,,,
92,Point,Edward Shippen Plaza (Bainbridge Green),ChIJkfXY6Z7IxokRwoLmLYKPGno,39.940736,-75.150167,31,1,,,,,,,,,,,,,,,,,,,,,,,,,,,,,,,,,,
217,Point,Morton Playground,ChIJ45NZ0TS4xokRJmx4XQuX4_w,40.04006,-75.17437,29,1,,,,,,,,,,,,,,,,,,,,,,,,,,,,,,,,,,
192,Point,Wisters Woods Park,ChIJbTO09im4xokR6p2LxTzm-Qs,40.033936,-75.156362,27,1,,,,,,,,,,,,,,,,,,,,,,,,,,,,,,,,,,
225,Point,Fairview Park,ChIJJ_MOvuu4xokRkDZS7pO5axo,40.03036,-75.22026,27,1,,,,,,,,,,,,,,,,,,,,,,,,,,,,,,,,,,
244,Point,Lawrence Street Playground,ChIJsfdf9HrIxokR8ipgB4VGkf4,39.96536,-75.14542,27,1,,,,,,,,,,,,,,,,,,,,,,,,,,,,,,,,,,
27,Point,Clifford Park,ChIJZ8Ie9lC4xokRuPFx7tO92B4,40.03495,-75.19249,25,1,,,,,,,,,,,,,,,,,,,,,,,,,,,,,,,,,,
153,Point,Fairhill Square,ChIJ02Zssa_JxokRLAa-XViQ1pc,39.991074,-75.138697,24,1,,,,,,,,,,,,,,,,,,,,,,,,,,,,,,,,,,
14,Point,Lovett Park,ChIJ04xxQN-5xokRolxTyGL2lfU,40.05679,-75.18763,23,1,,,,,,,,,,,,,,,,,,,,,,,,,,,,,,,,,,
199,Point,Ronald Trumbette Playground,ChIJfXXTXYW0xokRWry7JiRqoeM,40.048374,-75.005417,23,1,no google ID here,,,,,,,,,,,,,,,,,,,,,,,,,,,,,,,,,
211,Point,CCA Baldi School Playground,ChIJgbQKI9uzxokR-qVMyL3_iYY,40.092014,-75.05062,21,1,,,,,,,,,,,,,,,,,,,,,,,,,,,,,,,,,,
32,Point,Diamond Park,ChIJ_9KHsvvHxokRifh-I_LiRSo,39.9853,-75.16276,21,1,,,,,,,,,,,,,,,,,,,,,,,,,,,,,,,,,,
139,Point,Brewerytown Garden,ChIJycUXN7_HxokRBTaYXzyrnow,39.976919,-75.179614,20,1,,,,,,,,,,,,,,,,,,,,,,,,,,,,,,,,,,
196,Point,Hammond and Nedro Fields,ChIJEUGgTwS3xokRh1m4g0c7rdU,40.040108,-75.11596,20,1,also called Feliz Filadelfia in Tony Creek Park,,,,,,,,,,,,,,,,,,,,,,,,,,,,,,,,,
186,Point,Manayunk Bridge,ChIJJ8dYEb64xokRGhaC7Gp2e_I,40.02533,-75.22661,20,1,,,,,,,,,,,,,,,,,,,,,,,,,,,,,,,,,,
10,Point,Ann P Nichols Park,ChIJ0aqG8IPHxokR5LUIL7uvHXM,39.96369,-75.22983,16,1,,,,,,,,,,,,,,,,,,,,,,,,,,,,,,,,,,
88,Point,Carpenter Green Park,ChIJXdz9LKDHxokRSDnYqyKrtj8,39.939915,-75.171451,16,1,,,,,,,,,,,,,,,,,,,,,,,,,,,,,,,,,,
159,Point,Ford Road Playground,ChIJLT7znHvHxokR8JA8y0FPSus,39.998951,-75.207771,16,1,,,,,,,,,,,,,,,,,,,,,,,,,,,,,,,,,,
37,Point,Jacob Stinger Park,ChIJDRhqDmPGxokR7WSwfJ9wBKk,39.93656,-75.19734,16,1,really about playground here.,,,,,,,,,,,,,,,,,,,,,,,,,,,,,,,,,
84,Point,Bartrams Mile Trail Greenway (Grays Ferry),ChIJ57dXKYnGxokRnBwkM_0DYgM,39.937493,-75.206694,15,1,,,,,,,,,,,,,,,,,,,,,,,,,,,,,,,,,,
,,Ferko Playground,ChIJpRYFA0u2xokRqCSGUUT3NTc,40.01461,-75.1055,15,1,merge with Tacony Creek ,,,,,,,,,,,,,,,,,,,,,,,,,,,,,,,,,
133,Point,Thomas Hart Park,ChIJyZLE_23IxokRvslEx-hPp3M,39.971657,-75.142166,14,1,,,,,,,,,,,,,,,,,,,,,,,,,,,,,,,,,,
228,Point,Ingersoll Park,ChIJV7LRcNzHxokRyhtdVdXo_NU,39.9745,-75.16242,12,1,,,,,,,,,,,,,,,,,,,,,,,,,,,,,,,,,,
147,Point,Eric N Casiano Field,ChIJ-ZAqmxDIxokRsv01iuUcMYM,39.985157,-75.139458,11,1,,,,,,,,,,,,,,,,,,,,,,,,,,,,,,,,,,
75,Point,Karen Donnelly Park,ChIJ96sobqbIxokR0gtM-LUU5xE,39.928931,-75.149452,11,1,,,,,,,,,,,,,,,,,,,,,,,,,,,,,,,,,,
47,Point,Howell Park,ChIJvRIteTC4xokR7ii1lq7foEo,40.03041,-75.16876,11,1,,,,,,,,,,,,,,,,,,,,,,,,,,,,,,,,,,
70,Point,Buist Park,ChIJl1u2lLzFxokR3uDNvr93kfM,39.918677,-75.233154,10,1,,,,,,,,,,,,,,,,,,,,,,,,,,,,,,,,,,
,,"Tacony Creek Park, Rorer St. Gateway",ChIJobR0mq63xokRiBpks2cGAo0,40.02649,-75.11438,10,1,merge with Tacony Creek ,,,,,,,,,,,,,,,,,,,,,,,,,,,,,,,,,
57,Point,Anna M Ross Park,ChIJxwHQ7lq3xokRNsfqTulgfVI,39.99932,-75.14661,9,1,,,,,,,,,,,,,,,,,,,,,,,,,,,,,,,,,,
224,Point,Benson Park,ChIJGU8pc7nJxokR6W0YMWs7AW8,39.97353,-75.1427,9,1,,,,,,,,,,,,,,,,,,,,,,,,,,,,,,,,,,
7,Point,Levy Park,ChIJxUxhGTLGxokRUFbfE6lAsvY,39.95511,-75.16729,9,1,,,,,,,,,,,,,,,,,,,,,,,,,,,,,,,,,,
172,Point,Butler and Percy Play Lot,ChIJv9_C2fG3xokRomUIql4EyqE,40.009978,-75.143126,8,1,,,,,,,,,,,,,,,,,,,,,,,,,,,,,,,,,,
251,Point,Howard McCall Sr Playground,ChIJmea5w-LHxokR1-i69Sherbg,39.9793,-75.18444,8,1,,,,,,,,,,,,,,,,,,,,,,,,,,,,,,,,,,
232,Point,Lucien E Blackwell Park,ChIJmUmdk-LGxokRrLTZ-qzXq-U,39.96481,-75.21477,8,1,,,,,,,,,,,,,,,,,,,,,,,,,,,,,,,,,,
25,Point,Merritt Square,ChIJaQgO0zO2xokRjf8pYIm0dCc,40.00411,-75.10247,8,1,,,,,,,,,,,,,,,,,,,,,,,,,,,,,,,,,,
94,Point,22nd and Catharine Park,ChIJyY16FUDGxokR2elNN6sUN9Y,39.942386,-75.179316,7,1,,,,,,,,,,,,,,,,,,,,,,,,,,,,,,,,,,
164,Point,Chamounix Fields North,ChIJq2gfAYHHxokRCSRTXT9nayw,40.00105,-75.198813,7,1,Same,,,,,,,,,,,,,,,,,,,,,,,,,,,,,,,,,
165,Point,Chamounix Fields South,ChIJq2gfAYHHxokRCSRTXT9nayw,40.00105,-75.198813,7,1,Same,,,,,,,,,,,,,,,,,,,,,,,,,,,,,,,,,
99,Point,Michael Foglietta Plaza,ChIJDYeBdpDIxokRLSc9GZnoZWg,39.94488,-75.14266,6,1,called Beirut Memorial,,,,,,,,,,,,,,,,,,,,,,,,,,,,,,,,,
,,"Tacony Creek Park, Fishers Ln Gateway",ChIJ_UE-k022xokRkn8Tn8lEZo0,40.02085,-75.10354,6,1,merge with Tacony Creek ,,,,,,,,,,,,,,,,,,,,,,,,,,,,,,,,,
118,Point,Galusha Pennypacker Park,ChIJ8cd1GTPGxokR29paDW_oaiQ,39.95856,-75.169647,5,1,,,,,,,,,,,,,,,,,,,,,,,,,,,,,,,,,,
56,Point,Heritage Park Playground,ChIJOZUlLgC4xokRDffKH8q048g,40.00042,-75.15524,5,1,,,,,,,,,,,,,,,,,,,,,,,,,,,,,,,,,,
218,Point,26th and Pennsylvania Playground,ChIJA56T5LbHxokRHNBoMYgm390,39.9687,-75.18082,4,1,,,,,,,,,,,,,,,,,,,,,,,,,,,,,,,,,,
123,Point,Binswanger Triangle,ChIJK34LxVDHxokRwhbqaeJXkYU,39.962815,-75.177213,4,1,,,,,,,,,,,,,,,,,,,,,,,,,,,,,,,,,,
127,Point,33rd and Wallace Playground,ChIJ73R0SlTHxokRlRJijuhDoQM,39.965199,-75.190585,3,1,,,,,,,,,,,,,,,,,,,,,,,,,,,,,,,,,,
115,Point,45th and Sansom Tot Lot,ChIJx3ySeVDHxokRvcyEIMK5_U4,39.956114,-75.2117,3,1,,,,,,,,,,,,,,,,,,,,,,,,,,,,,,,,,,
237,Point,Clarkson Park,ChIJq71Bym23xokRZXI2ChGDcTM,40.03586,-75.14509,3,1,,,,,,,,,,,,,,,,,,,,,,,,,,,,,,,,,,
206,Point,Frank McArdle Memorial Recreation Center,ChIJBSko8YizxokRKUuC7pL7UKQ,40.060797,-75.026321,2,1,,,,,,,,,,,,,,,,,,,,,,,,,,,,,,,,,,
169,Point,Williams Moore Reed Memorial Park,ChIJN6no75O3xokReoq9jtz7F_s,40.007309,-75.146557,2,1,,,,,,,,,,,,,,,,,,,,,,,,,,,,,,,,,,
180,Point,Wingohocking Park,ChIJ_Vd0D5K3xokRmbOHjbn2b7w,40.020511,-75.14592,2,1,,,,,,,,,,,,,,,,,,,,,,,,,,,,,,,,,,
119,Point,Winter Street Greenway,ChIJcxd3lJzHxokRAHAs8m-BFLU,39.959044,-75.173367,2,1,,,,,,,,,,,,,,,,,,,,,,,,,,,,,,,,,,
33,Point,Gerald J Maguire Playground,ChIJ6Qfp73zJxokRAYBKrnjiCsQ,39.99153,-75.13305,2,1,,,,,,,,,,,,,,,,,,,,,,,,,,,,,,,,,,
38,Point,Howard and Reed Park,ChIJYyEjRKTIxokRgv2Piwn4DIo,39.93027,-75.14684,2,1,,,,,,,,,,,,,,,,,,,,,,,,,,,,,,,,,,
5,Point,Titan Park,ChIJMXT7dqTIxokRr6gt5e1bjk4,39.93172,-75.14672,2,1,,,,,,,,,,,,,,,,,,,,,,,,,,,,,,,,,,
141,Point,3rd and Norris Playground,ChIJodz9HnzJxokRBucC4Kv-_DE,39.981094,-75.139472,1,1,,,,,,,,,,,,,,,,,,,,,,,,,,,,,,,,,,
77,Point,Greble Post War Memorial,ChIJRQ0jlKbIxokR0IIfr0gSjJE,39.93084,-75.149832,1,1,,,,,,,,,,,,,,,,,,,,,,,,,,,,,,,,,,
148,Point,Rainbow De Colores Playground,ChIJHe9c6vvJxokRUN-Ktdo-N9I,39.986846,-75.141694,1,1,,,,,,,,,,,,,,,,,,,,,,,,,,,,,,,,,,
13,Point,Cedar Park,ChIJdckf6oLHxokR1ukHy5CkEjo,39.94825,-75.22276,1,1,,,,,,,,,,,,,,,,,,,,,,,,,,,,,,,,,,
247,Point,Daly Park,ChIJI1ri8UO3xokR3St5k16ir1E,39.99971,-75.15028,1,1,,,,,,,,,,,,,,,,,,,,,,,,,,,,,,,,,,
230,Point,Emily Community Garden,ChIJZwIjxmnHxokRdygAORrr5lI,39.92371,-75.15913,1,1,,,,,,,,,,,,,,,,,,,,,,,,,,,,,,,,,,
36,Point,Northeast Lions Park,ChIJK50cZUqxxokRfd0ouLMvQQc,40.07644,-75.08531,1,1,,,,,,,,,,,,,,,,,,,,,,,,,,,,,,,,,,
16,Point,Arrow Field,ChIJiUvOuzi5xokR9zDs0eExcGo,40.02907,-75.2054,0,1,,,,,,,,,,,,,,,,,,,,,,,,,,,,,,,,,,
